{"0":{"title":"A clear, sunny day on the Great Ocean Road, Australia (OC) 3894x4869","afterClean":"A clear, sunny day on the Great Ocean Road, Australia ","subreddit":"EarthPorn","url":"https:\/\/i.redd.it\/w0w69qs1scj41.jpg","body":"","location":"Great+Ocean+Road+Australia","longitude":142.61227,"latitude":-38.13579,"contryName":"Australia","contryCode":"AU"},"1":{"title":"\"Heading West\" - Grand Canyon NP [OC] [1600x1068]","afterClean":"\"Heading West\" - Grand Canyon NP ","subreddit":"EarthPorn","url":"https:\/\/i.redd.it\/kbaif2qlsbj41.jpg","body":"","location":"West+Grand","longitude":-63.05358,"latitude":18.10476,"contryName":"Saint Martin","contryCode":"MF"},"2":{"title":"A cold but beautful sunrise at Bryce Canyon National Park [OC][568x800]","afterClean":"A cold but beautful sunrise at Bryce Canyon National Park","subreddit":"EarthPorn","url":"https:\/\/i.redd.it\/en0pukirldj41.jpg","body":"","location":"Bryce+Canyon+National+Park","longitude":-112.18271,"latitude":37.5839,"contryName":"United States","contryCode":"US"},"3":{"title":"Fall in the Tetons is magical...Grand Teton National Park, WY [OC 4016x6016]","afterClean":"Fall in the Tetons is magical...Grand Teton National Park, WYx","subreddit":"EarthPorn","url":"https:\/\/i.redd.it\/x6otn7ysydj41.jpg","body":"","location":"Tetons+Grand+Teton","longitude":-110.88411,"latitude":43.75132,"contryName":"United States","contryCode":"US"},"4":{"title":"A calm autumn day in Yosemite National Park California [OC] [3276x4096]","afterClean":"A calm autumn day in Yosemite National Park California ","subreddit":"EarthPorn","url":"https:\/\/i.redd.it\/598sby3o6dj41.jpg","body":"","location":"Yosemite+National+Park+California","longitude":-119.55696,"latitude":37.84835,"contryName":"United States","contryCode":"US"},"5":{"title":"Iceland glacial ice, this piece is likely 10,000 years old [OC] [1080x1350]","afterClean":"Iceland glacial ice, this piece is likely 10, years old ","subreddit":"EarthPorn","url":"https:\/\/i.redd.it\/zd713l64pcj41.jpg","body":"","location":"Iceland","longitude":-18.0,"latitude":65.0,"contryName":"Iceland","contryCode":"IS"},"6":{"title":"Doesn't get much moodier than dead trees, fog, and a lone raven, Bench Lake Hike, Mount Rainier [OC] [2048x1326]","afterClean":"Doesn't get much moodier than dead trees, fog, and a lone raven, Bench Lake Hike, Mount Rainier ","subreddit":"EarthPorn","url":"https:\/\/i.redd.it\/ksrgp3zjq9j41.jpg","body":"","location":"Bench+Lake","longitude":-75.68,"latitude":47.65611,"contryName":"Canada","contryCode":"CA"},"7":{"title":"Lago Limides, Italy [OC][1080x1350] IG: @holysh0t","afterClean":"Lago Limides, Italy","subreddit":"EarthPorn","url":"https:\/\/i.redd.it\/wfig0nhf4fj41.jpg","body":"","location":"Lago+Limides+Italy","longitude":12.02295,"latitude":46.51175,"contryName":"Italy","contryCode":"IT"},"8":{"title":"Abiqua Falls, OR [OC] [3042x4032]","afterClean":"Abiqua Falls, OR ","subreddit":"EarthPorn","url":"https:\/\/i.imgur.com\/8QE280W.jpg","body":"","location":"Abiqua+Falls+OR","longitude":-122.56729,"latitude":44.92632,"contryName":"United States","contryCode":"US"},"9":{"title":"Moraine Lake at Sunrise [3309x4963] [OC]","afterClean":"Moraine Lake at Sunrise","subreddit":"EarthPorn","url":"https:\/\/i.redd.it\/2zdfzu0s8aj41.jpg","body":"","location":"Lake+Sunrise","longitude":146.11,"latitude":-42.52,"contryName":"Australia","contryCode":"AU"},"10":{"title":"You can pay to take a cable car up to this view, no hiking required. Longest glacier in the Alps, and the prettiest I've ever seen. Aletsch Arena, Switzerland [OC] [3200 x 4000]","afterClean":"You can pay to take a cable car up to this view, no hiking required. Longest glacier in the Alps, and the prettiest I've ever seen. Aletsch Arena, Switzerland  ","subreddit":"EarthPorn","url":"https:\/\/i.redd.it\/949eezfeacj41.jpg","body":"","location":"Aletsch+Arena+Switzerland","longitude":8.09942,"latitude":46.39416,"contryName":"Switzerland","contryCode":"CH"},"11":{"title":"Blue waters in Carmel, CA [oc] [4160x6240]","afterClean":"Blue waters in Carmel, CA ","subreddit":"EarthPorn","url":"https:\/\/i.redd.it\/9w0wddnskej41.jpg","body":"","location":"Carmel+CA","longitude":-73.40889,"latitude":47.31972,"contryName":"Canada","contryCode":"CA"},"12":{"title":"Cape Raoul Tasmania Australia (4032x3024) [OC]","afterClean":"Cape Raoul Tasmania Australia","subreddit":"EarthPorn","url":"https:\/\/i.redd.it\/5lrj8opvfdj41.jpg","body":"","location":"Cape+Raoul+Tasmania+Australia","longitude":147.79667,"latitude":-43.24,"contryName":"Australia","contryCode":"AU"},"13":{"title":"Dawn @ Wright's Lake, CA [OC] [4032x3024]","afterClean":"Dawn  Wright's Lake, CA ","subreddit":"EarthPorn","url":"https:\/\/i.redd.it\/ouccqutj6dj41.jpg","body":"","location":"Wright+Lake+CA","longitude":-75.58167,"latitude":45.705,"contryName":"Canada","contryCode":"CA"},"14":{"title":"Driftwood Beach on the Oregon Coast. Oregon, USA. [oc][1080x1080] ig-natureprofessor","afterClean":"Driftwood Beach on the Oregon Coast. Oregon, USA ig-natureprofessor","subreddit":"EarthPorn","url":"https:\/\/i.redd.it\/9a9sbnka7cj41.jpg","body":"","location":"Oregon+Coast+Oregon+USA","longitude":-124.13864,"latitude":44.07969,"contryName":"United States","contryCode":"US"},"15":{"title":"Feeling beautifully small among these giants. Death Valley, CA. [OC] [2500x1666] @relativebrand","afterClean":"Feeling beautifully small among these giants. Death Valley, CA. ","subreddit":"EarthPorn","url":"https:\/\/i.redd.it\/u2sr2a71iej41.jpg","body":"","location":"Death+Valley+CA","longitude":-116.817,"latitude":36.24662,"contryName":"United States","contryCode":"US"},"16":{"title":"Rare sunny day at Grey Glacier in Torres Del Paine NP, Chile [OC] [6024x4024]","afterClean":"Rare sunny day at Grey Glacier in Torres Del Paine NP, Chile ","subreddit":"EarthPorn","url":"https:\/\/i.redd.it\/tbg0zaq28ej41.jpg","body":"","location":"NP+Chile","longitude":86.26571,"latitude":27.44777,"contryName":"Nepal","contryCode":"NP"},"17":{"title":"Glacier National Park, BC, Canada [OC] [5184 x 3456]","afterClean":"Glacier National Park, BC, Canada  ","subreddit":"EarthPorn","url":"https:\/\/i.redd.it\/txhgfrccdej41.jpg","body":"","location":"Glacier+National+Park+BC+Canada","longitude":-117.51893,"latitude":51.26661,"contryName":"Canada","contryCode":"CA"},"18":{"title":"A calm stream in Maine. [OC] [1920x1080]","afterClean":"A calm stream in Maine. ","subreddit":"EarthPorn","url":"https:\/\/i.redd.it\/878758soqcj41.jpg","body":"","location":"Maine","longitude":-69.24977,"latitude":45.50032,"contryName":"United States","contryCode":"US"},"19":{"title":"I had a really cool night waiting for northern lights, full moon lit the landscape, the winds blew snow in my face. Seeing scenery like this flowing around makes the cold barely noticeable. Senja, Norway [OC] [2500x1925]","afterClean":"I had a really cool night waiting for northern lights, full moon lit the landscape, the winds blew snow in my face. Seeing scenery like this flowing around makes the cold barely noticeable. Senja, Norway ","subreddit":"EarthPorn","url":"https:\/\/i.redd.it\/e8m9q5sfj9j41.jpg","body":"","location":"Senja+Norway","longitude":17.61353,"latitude":69.31549,"contryName":"Norway","contryCode":"NO"},"20":{"title":"A cloudy day near Tiger Point, Lonavala, Maharashtra, India. [OC] 2952x3240","afterClean":"A cloudy day near Tiger Point, Lonavala, Maharashtra, India. ","subreddit":"EarthPorn","url":"https:\/\/i.redd.it\/toyhel9ojfj41.jpg","body":"","location":"Lonavala+Maharashtra+India","longitude":73.40575,"latitude":18.75275,"contryName":"India","contryCode":"IN"},"21":{"title":"[OC] Hoyt Arboretum, Portland, Oregon [5472x3648] by @saundersdvm","afterClean":"Hoyt Arboretum, Portland, Oregon by","subreddit":"EarthPorn","url":"https:\/\/i.redd.it\/jvcshzzfjcj41.jpg","body":"","location":"Portland+Oregon","longitude":-122.67621,"latitude":45.52345,"contryName":"United States","contryCode":"US"},"22":{"title":"The rain stopped and the sun broke through at sunset - Cannon Beach Oregon [OC] [6124x4082]","afterClean":"The rain stopped and the sun broke through at sunset - Cannon Beach Oregon ","subreddit":"EarthPorn","url":"https:\/\/i.redd.it\/jy94fe8s96j41.jpg","body":"","location":"Cannon+Beach+Oregon","longitude":-123.96153,"latitude":45.89177,"contryName":"United States","contryCode":"US"},"23":{"title":"The Scottish Highlands right now after a few days of snow fall [OC] [7176 x 3924].","afterClean":"The Scottish Highlands right now after a few days of snow fall","subreddit":"EarthPorn","url":"https:\/\/i.redd.it\/io68tmqqmcj41.jpg","body":"","location":"Highlands","longitude":108.12744,"latitude":13.67801,"contryName":"Vietnam","contryCode":"VN"},"24":{"title":"The start of Golden Hour at Torres del Paine, Patagonia [OC] [2674x1994]","afterClean":"The start of Golden Hour at Torres del Paine, Patagonia ","subreddit":"EarthPorn","url":"https:\/\/i.redd.it\/4h1xbugtvfj41.jpg","body":"","location":"Torres+Paine+Patagonia","longitude":-72.87571,"latitude":-50.97329,"contryName":"Chile","contryCode":"CL"},"25":{"title":"Just before sunrise on the north shore - Duluth, MN [OC] [5962x3975]","afterClean":"Just before sunrise on the north shore - Duluth, MN ","subreddit":"EarthPorn","url":"https:\/\/i.redd.it\/15no4slyydj41.jpg","body":"","location":"MN","longitude":89.29688,"latitude":29.84064,"contryName":"continent","contryCode":"CONT"},"26":{"title":"A cloudy day at Sangernboden, Switzerland [OC] [5000x2002]","afterClean":"A cloudy day at Sangernboden, Switzerland ","subreddit":"EarthPorn","url":"https:\/\/i.redd.it\/thojztx8mfj41.png","body":"","location":"Sangernboden+Switzerland","longitude":7.35187,"latitude":46.7133,"contryName":"Switzerland","contryCode":"CH"},"27":{"title":"A frosty sunrise at the Flatirons in Boulder, CO [1080x1350] [OC] @erik_young","afterClean":"A frosty sunrise at the Flatirons in Boulder, CO","subreddit":"EarthPorn","url":"https:\/\/i.redd.it\/n3dce0fs0cj41.jpg","body":"","location":"Boulder+CO","longitude":-105.27055,"latitude":40.01499,"contryName":"United States","contryCode":"US"},"28":{"title":"Yosemite National Park, California [3648 \u00d7 5472] [OC]","afterClean":"Yosemite National Park, California ","subreddit":"EarthPorn","url":"https:\/\/i.redd.it\/8qtq0r478dj41.jpg","body":"","location":"Yosemite+National+Park+California","longitude":-119.55696,"latitude":37.84835,"contryName":"United States","contryCode":"US"},"29":{"title":"Canmore, Alberta, Canada [OC] [2732 x 2048]","afterClean":"Canmore, Alberta, Canada  ","subreddit":"EarthPorn","url":"https:\/\/i.redd.it\/8fo3na3mtej41.png","body":"","location":"Canmore+Alberta+Canada","longitude":-115.32545,"latitude":51.06359,"contryName":"Canada","contryCode":"CA"},"30":{"title":"POON HILL cloud jungle, Nepal, part #2. Since you liked the first. [3456x4320] [OC] @romain_2r","afterClean":"POON HILL cloud jungle, Nepal, part #2. Since you liked the first.","subreddit":"EarthPorn","url":"https:\/\/i.redd.it\/k6nz2qyvvfj41.jpg","body":"","location":"POON+HILL+Nepal","longitude":83.68896,"latitude":28.39903,"contryName":"Nepal","contryCode":"NP"},"31":{"title":"The ice was fantastic on Abraham Lake in Canada in January [2048x1365][OC]","afterClean":"The ice was fantastic on Abraham Lake in Canada in January","subreddit":"EarthPorn","url":"https:\/\/i.redd.it\/fi9qix353cj41.jpg","body":"","location":"Abraham+Lake+Canada","longitude":-116.42722,"latitude":52.22361,"contryName":"Canada","contryCode":"CA"},"32":{"title":"West of Canmore, Alberta, looking East [OC] [5184 x 3456]","afterClean":"West of Canmore, Alberta, looking East  ","subreddit":"EarthPorn","url":"https:\/\/i.redd.it\/g96uc42neej41.jpg","body":"","location":"Alberta+East","longitude":-116.16913,"latitude":55.16679,"contryName":"Canada","contryCode":"CA"},"33":{"title":"An iceberg in a glacier lagoon in Iceland seems to bend the law of physics [OC] [2397x2335] - Insta: @glacionaut","afterClean":"An iceberg in a glacier lagoon in Iceland seems to bend the law of physics","subreddit":"EarthPorn","url":"https:\/\/i.redd.it\/fva9ulmfqfj41.jpg","body":"","location":"Iceland","longitude":-18.0,"latitude":65.0,"contryName":"Iceland","contryCode":"IS"},"34":{"title":"Maelstrom, a sink hole on Kauai. [OC][1526x1024]","afterClean":"Maelstrom, a sink hole on Kauai.","subreddit":"EarthPorn","url":"https:\/\/i.redd.it\/26x2ky8mkbj41.jpg","body":"","location":"Kauai","longitude":-159.33861,"latitude":21.97583,"contryName":"United States","contryCode":"US"}}