{"0":{"title":"Estes Park, Colorado [3024 x 4032] OC","afterClean":"Estes Park Colorado ","subreddit":"EarthPorn","url":"https:\/\/i.redd.it\/qwgz9v4dxvt41.jpg","body":"","location":"Estes+Park+Colorado","longitude":-105.52167,"latitude":40.37721,"contryName":"United States","contryCode":"US","name":"Estes Park"},"1":{"title":"The most beautiful mountain range in the Dolomites [OC][1805x1920] IG: @holysh0t","afterClean":"The most beautiful mountain range in the Dolomites","subreddit":"EarthPorn","url":"https:\/\/i.redd.it\/nwemnvqevtt41.jpg","body":"","location":"Dolomites","longitude":11.85,"latitude":46.38333,"contryName":"Italy","contryCode":"IT","name":"Dolomites"},"2":{"title":"Sunset burns over Reflections lake in Alaska. [1080x1223] OC","afterClean":"Sunset burns over Reflections lake in Alaska","subreddit":"EarthPorn","url":"https:\/\/i.redd.it\/wtq2ximl5wt41.jpg","body":"","location":"Reflections+Alaska","longitude":-149.25333,"latitude":61.48639,"contryName":"United States","contryCode":"US","name":"Reflections Lake"},"3":{"title":"Bloodmoon Canyon - Original composited Lunar Eclipse and Slot Canyon - (Shared earlier without Cred) Original Artist IG: @whereisweatherby [OC] [2000x1600]","afterClean":"Bloodmoon Canyon - Original composited Lunar Eclipse and Slot Canyon - Shared earlier without Cred Original Artist   ","subreddit":"EarthPorn","url":"https:\/\/i.redd.it\/5h5ybqhc5vt41.jpg","body":"","location":"Artist","longitude":145.99467,"latitude":-42.21039,"contryName":"Australia","contryCode":"AU","name":"Artist Hill"},"4":{"title":"Sunset reflections in Wasilla, Alaska. [1080x1310] OC","afterClean":"Sunset reflections in Wasilla Alaska","subreddit":"EarthPorn","url":"https:\/\/i.redd.it\/3tbgg2nw3rt41.jpg","body":"","location":"Wasilla","longitude":-149.4415,"latitude":61.5809,"contryName":"United States","contryCode":"US","name":"Wasilla"},"5":{"title":"Kootenai Falls, MT [OC][4000x6000]","afterClean":"Kootenai Falls MT","subreddit":"EarthPorn","url":"https:\/\/i.redd.it\/f23fl8weivt41.jpg","body":"","location":"Kootenai+Falls+MT","longitude":-115.78267,"latitude":48.448,"contryName":"United States","contryCode":"US","name":"Kootenai Falls"},"6":{"title":"Sunset Over Lake Superior (2972 x 3962) OC","afterClean":"Sunset Over Lake Superior ","subreddit":"EarthPorn","url":"https:\/\/i.redd.it\/lm7m5fuafwt41.jpg","body":"","location":"Sunset","longitude":141.43181,"latitude":-34.68235,"contryName":"Australia","contryCode":"AU","name":"Murray-Sunset National Park"},"7":{"title":"Devils Punchbowl Waterfall, Arthur's Pass, NZ [OC][2000x1334]","afterClean":"Devils Punchbowl Waterfall Arthur's Pass NZ","subreddit":"EarthPorn","url":"https:\/\/i.redd.it\/fpvw35mm3wt41.jpg","body":"","location":"Arthur+Pass","longitude":171.58333,"latitude":-42.95,"contryName":"New Zealand","contryCode":"NZ","name":"Arthur's Pass National Park"},"8":{"title":"The Ghost Mountains, Kamchatka (Photo: Isabella Tabacchi) [OS] [1080x810]","afterClean":"The Ghost Mountains Kamchatka Photo Isabella Tabacchi OS","subreddit":"EarthPorn","url":"https:\/\/isabellatabacchi.com\/wp-content\/uploads\/2020\/01\/The-ghost-mountains_low-res_HasselbladX1D.jpg","body":"","location":"Tabacchi","longitude":12.53916,"latitude":45.73309,"contryName":"Italy","contryCode":"IT","name":"Tabacchi"},"9":{"title":"Hidden cove at Oswald West Park, Oregon. [4032x3024] [OC]","afterClean":"Hidden cove at Oswald West Park Oregon","subreddit":"EarthPorn","url":"https:\/\/imgur.com\/RubPcti","body":"","location":"Oswald+West+Park+Oregon","longitude":-123.95986,"latitude":45.76983,"contryName":"United States","contryCode":"US","name":"Oswald West State Park"},"10":{"title":"Lake Matheson NZ [OC] [2160X2700]","afterClean":"Lake Matheson NZ ","subreddit":"EarthPorn","url":"https:\/\/i.redd.it\/3r5z79pqhtt41.jpg","body":"","location":"Lake+Matheson+NZ","longitude":169.9601,"latitude":-43.43831,"contryName":"New Zealand","contryCode":"NZ","name":"Lake Matheson"},"11":{"title":"Black basalt waterfall at Svartifoss, Iceland [3024x4032] [OC]","afterClean":"Black basalt waterfall at Svartifoss Iceland","subreddit":"EarthPorn","url":"https:\/\/i.redd.it\/unk3y8vy1st41.jpg","body":"","location":"Svartifoss+Iceland","longitude":-16.97638,"latitude":64.02766,"contryName":"Iceland","contryCode":"IS","name":"Svartifoss"},"12":{"title":"Port Orford, Oregon at sunset [OC] [1920x1280]","afterClean":"Port Orford Oregon at sunset ","subreddit":"EarthPorn","url":"https:\/\/i.redd.it\/io7fzhluwwt41.jpg","body":"","location":"Port+Orford+Oregon","longitude":-124.49733,"latitude":42.74566,"contryName":"United States","contryCode":"US","name":"Port Orford"},"13":{"title":"Rattlesnake Lake, North Bend, WA [OC] [5016x3344]","afterClean":"Rattlesnake Lake North Bend WA ","subreddit":"EarthPorn","url":"https:\/\/i.redd.it\/mtr423z8hvt41.jpg","body":"","location":"Lake+North+Bend","longitude":-95.649,"latitude":29.49095,"contryName":"United States","contryCode":"US","name":"Smithers Lake"},"14":{"title":"Took a hike through the photo archives and found myself in Glacier National Park [4084x5445][OC]","afterClean":"Took a hike through the photo archives and found myself in Glacier National Park","subreddit":"EarthPorn","url":"https:\/\/i.redd.it\/t71d8i8psut41.jpg","body":"","location":"Glacier+National+Park","longitude":-113.80031,"latitude":48.68306,"contryName":"United States","contryCode":"US","name":"Glacier National Park"},"15":{"title":"The water of Lake Louise is as clear as glass (OC) [5370x3215] Banff National Park","afterClean":"The water of Lake Louise is as clear as glass Banff National Park","subreddit":"EarthPorn","url":"https:\/\/i.redd.it\/piy0yylw6vt41.jpg","body":"","location":"Banff+National+Park","longitude":-115.57377,"latitude":51.17335,"contryName":"Canada","contryCode":"CA","name":"Banff Park Museum National Historic Site of Canada"},"16":{"title":"Sunrise at Tanay, Rizal Philippines [OC] [6240x4160]","afterClean":"Sunrise at Tanay Rizal Philippines ","subreddit":"EarthPorn","url":"https:\/\/i.redd.it\/lbeoftcu6xt41.jpg","body":"","location":"Tanay+Rizal","longitude":121.2846,"latitude":14.4968,"contryName":"Philippines","contryCode":"PH","name":"Tanay"},"17":{"title":"The Grand Canyon, Arizona [4032x3024] (OC)","afterClean":"The Grand Canyon Arizona","subreddit":"EarthPorn","url":"https:\/\/i.imgur.com\/ECItKf8.jpg","body":"","location":"The+Grand+Canyon+Arizona","longitude":-113.99607,"latitude":36.11276,"contryName":"United States","contryCode":"US","name":"Grand Canyon"},"18":{"title":"Sunset at Ecola National Park, Oregon. [4032x3024] [OC]","afterClean":"Sunset at Ecola National Park Oregon","subreddit":"EarthPorn","url":"https:\/\/imgur.com\/T5LLmtf","body":"","location":"National+Park+Oregon","longitude":-122.13282,"latitude":42.94109,"contryName":"United States","contryCode":"US","name":"Crater Lake National Park"},"19":{"title":"Looking forward to summer again. Gimmelwald, Switzerland [3790x5305] [OC]","afterClean":"Looking forward to summer again Gimmelwald Switzerland","subreddit":"EarthPorn","url":"https:\/\/i.redd.it\/84hckwaczst41.jpg","body":"","location":"Gimmelwald+Switzerland","longitude":7.89138,"latitude":46.54554,"contryName":"Switzerland","contryCode":"CH","name":"Gimmelwald"},"20":{"title":"Warm light flooding the Sebalder Reichswald near Nuremberg [4024x6048] OC","afterClean":"Warm light flooding the Sebalder Reichswald near Nuremberg","subreddit":"EarthPorn","url":"https:\/\/i.redd.it\/4ynd19elhut41.jpg","body":"","location":"Sebalder+Reichswald","longitude":11.11023,"latitude":49.53088,"contryName":"Germany","contryCode":"DE","name":"Sebalder Reichswald"},"21":{"title":"Views of Denali and the Alaska Range. [1080x1350] OC","afterClean":"Views of Denali and the Alaska Range","subreddit":"EarthPorn","url":"https:\/\/i.redd.it\/74l9ycuq0qt41.jpg","body":"","location":"Alaska+Range","longitude":-153.24221,"latitude":70.91074,"contryName":"United States","contryCode":"US","name":"Lonely Air Station"},"22":{"title":"Richea scoparia on kunanyi\/Mt Wellington - Tasmania, Australia [OC] [4338x5559] IG: @eagleeyetas","afterClean":"Richea scoparia on kunanyi\/Mt Wellington - Tasmania Australia ","subreddit":"EarthPorn","url":"https:\/\/i.redd.it\/zfnniwuvivt41.jpg","body":"","location":"Wellington+Tasmania","longitude":147.23662,"latitude":-42.8959,"contryName":"Australia","contryCode":"AU","name":"Mount Wellington"},"23":{"title":"Shymbulak mountain, Kazakhstan [OC][1439x2048][IG:@legostin]","afterClean":"Shymbulak mountain Kazakhstan","subreddit":"EarthPorn","url":"https:\/\/i.redd.it\/ixntpnujhwt41.jpg","body":"","location":"Shymbulak+mountain+Kazakhstan","longitude":77.09312,"latitude":43.12755,"contryName":"Kazakhstan","contryCode":"KZ","name":"Shymbulak Mountain Resort"},"24":{"title":"Picos de Europa, Asturias, Spain [OC] [2500 \u00d7 1667]","afterClean":"Picos de Europa Asturias Spain  ","subreddit":"EarthPorn","url":"https:\/\/i.redd.it\/o8xfaai48xt41.jpg","body":"","location":"Picos+de+Europa+Asturias+Spain","longitude":-4.81588,"latitude":43.30407,"contryName":"Spain","contryCode":"ES","name":"PICOS DE EUROPA Hotel"},"25":{"title":"Gunnison, Colorado [OC] [3541x5472]","afterClean":"Gunnison Colorado ","subreddit":"EarthPorn","url":"https:\/\/i.imgur.com\/f5nI4iT.jpg","body":"","location":"Gunnison+Colorado","longitude":-107.0317,"latitude":38.6668,"contryName":"United States","contryCode":"US","name":"Gunnison"},"26":{"title":"Spring Flower at Sunrise in Arizona [6000x4000] [OC]","afterClean":"Spring Flower at Sunrise in Arizona","subreddit":"EarthPorn","url":"https:\/\/i.redd.it\/t600zqcbsst41.jpg","body":"","location":"Sunrise+Arizona","longitude":-109.74539,"latitude":35.60362,"contryName":"United States","contryCode":"US","name":"Sunrise Springs"},"27":{"title":"The forest reclaiming the mountainside, Glacier National Park, Montana. [4032x3024] (OC)","afterClean":"The forest reclaiming the mountainside Glacier National Park Montana","subreddit":"EarthPorn","url":"https:\/\/imgur.com\/Sxyv4DW","body":"","location":"Glacier+National+Park+Montana","longitude":-113.80031,"latitude":48.68306,"contryName":"United States","contryCode":"US","name":"Glacier National Park"},"28":{"title":"A soft sunset at the UK's Pulpit Rock in Dorset [OC] [4088x5110] IG: @pete_ell","afterClean":"A soft sunset at the UK's Pulpit Rock in Dorset ","subreddit":"EarthPorn","url":"https:\/\/i.redd.it\/dk3r69n8vut41.jpg","body":"","location":"Rock+Dorset","longitude":147.71001,"latitude":-40.98,"contryName":"Australia","contryCode":"AU","name":"Single White Rock"},"29":{"title":"300 years old English oak. Wiltshire UK [oc] [1944*2592]","afterClean":"years old English oak Wiltshire UK ","subreddit":"EarthPorn","url":"https:\/\/i.redd.it\/0dtggzs3jst41.jpg","body":"","location":"Wiltshire+UK","longitude":-1.91667,"latitude":51.25,"contryName":"United Kingdom","contryCode":"GB","name":"Wiltshire"}}